{"type":"FeatureCollection","features":[{"type":"Feature","properties":{"name":"Adams State University - Luther Bean Museum","images":"Adams State University - Luther Bean Museum.jpg"},"geometry":{"type":"Point","coordinates":[-105.8802,37.47003]}},{"type":"Feature","properties":{"name":"Alamosa National Wildlife Refuge and Visitor Center","images":"Alamosa National Wildlife Refuge and Visitor Center.jpg"},"geometry":{"type":"Point","coordinates":[-105.8030248,37.4387868]}},{"type":"Feature","properties":{"name":"Baca National Wildlife Refuge","images":"Baca National Wildlife Refuge.jpg"},"geometry":{"type":"Point","coordinates":[-105.7751294,37.8610774]}},{"type":"Feature","properties":{"name":"Bishops Rock","images":""},"geometry":{"type":"Point","coordinates":[-106.343021,37.483711]}},{"type":"Feature","properties":{"name":"Blanca Peak","images":"Blanca Peak.jpg"},"geometry":{"type":"Point","coordinates":[-105.485845,37.577227]}},{"type":"Feature","properties":{"name":"Blanca Wetlands, BLM","images":"Blanca Wetlands.jpg"},"geometry":{"type":"Point","coordinates":[-105.71185,37.5624097]}},{"type":"Feature","properties":{"name":"Cano's Castle","images":"Cano's Castle.jpg"},"geometry":{"type":"Point","coordinates":[-106.0061045,37.0813142]}},{"type":"Feature","properties":{"name":"Capilla de Viejo San Acacio","images":"Capilla de Viejo San Acacio.jpeg"},"geometry":{"type":"Point","coordinates":[-105.50844,37.2018328]}},{"type":"Feature","properties":{"name":"Cielo Vista Ranch (Taylor Ranch)","images":"Cielo Vista Ranch.jpg"},"geometry":{"type":"Point","coordinates":[-105.3037139,37.1708966]}},{"type":"Feature","properties":{"name":"Conejos Canyon","images":""},"geometry":{"type":"Point","coordinates":[-106.446874,37.180592]}},{"type":"Feature","properties":{"name":"Conejos County Library","images":"Conejos County Library.jpg"},"geometry":{"type":"Point","coordinates":[-105.967201,37.2523465]}},{"type":"Feature","properties":{"name":"Conejos County Museum","images":"Conejos County Museum -- museum trail -- 01.jpg"},"geometry":{"type":"Point","coordinates":[-106.0145866,37.0682267]}},{"type":"Feature","properties":{"name":"Cottonwood Peak","images":"Conejos_canyon.jpg"},"geometry":{"type":"Point","coordinates":[-105.756397,38.219443]}},{"type":"Feature","properties":{"name":"Creede Historical Society Museum & Library","images":"Creede Historical Society Museum & Library.jpg"},"geometry":{"type":"Point","coordinates":[-106.9270182,37.8524283]}},{"type":"Feature","properties":{"name":"Crestone Needle","images":"Crestone Needle.jpg"},"geometry":{"type":"Point","coordinates":[-105.5766752,37.9647221]}},{"type":"Feature","properties":{"name":"CSU Potato Ag Test Plots","images":"CSU Potato Ag Test Plots.jpg"},"geometry":{"type":"Point","coordinates":[-106.144555,37.7053787]}},{"type":"Feature","properties":{"name":"Culebra Peak","images":"Culebra Peak.jpg"},"geometry":{"type":"Point","coordinates":[-105.185562,37.122242]}},{"type":"Feature","properties":{"name":"Cumbres & Toltec Scenic Railroad Antonito Depot","images":"Cumbres & Toltec Scenic Railroad Antonito Depot REA.jpg"},"geometry":{"type":"Point","coordinates":[-106.0120421,37.0695753]}},{"type":"Feature","properties":{"name":"Electric Peak","images":""},"geometry":{"type":"Point","coordinates":[-105.708341,38.181665]}},{"type":"Feature","properties":{"name":"Homelake Veterans' History Museum","images":"Homelake Veterans History Museum.jpg"},"geometry":{"type":"Point","coordinates":[-106.0982963,37.57567068]}},{"type":"Feature","properties":{"name":"Iglesia de la Inmaculada Concepción","images":"Iglesia de la Inmaculada Concepcion.jpg"},"geometry":{"type":"Point","coordinates":[-105.3817417,37.1632865]}},{"type":"Feature","properties":{"name":"Iglesia de San Francisco de Assisi","images":"Iglesia de la Inmaculada Concepcion.jpg"},"geometry":{"type":"Point","coordinates":[-105.34942,37.1023933]}},{"type":"Feature","properties":{"name":"Iglesia de San Pedro y San Pablo","images":"Iglesia de San Pedro y San Pablo.jpg"},"geometry":{"type":"Point","coordinates":[-105.4017778,37.161291]}},{"type":"Feature","properties":{"name":"King Turquoise Mine","images":"King Turquoise Mine.png"},"geometry":{"type":"Point","coordinates":[-105.7601643,37.1758258]}},{"type":"Feature","properties":{"name":"Kiowa Hill","images":"Kiowa Hill.webp"},"geometry":{"type":"Point","coordinates":[-105.8039061,37.0883485]}},{"type":"Feature","properties":{"name":"La Jara Trading Post","images":""},"geometry":{"type":"Point","coordinates":[-105.9543787,37.2692066]}},{"type":"Feature","properties":{"name":"La Jara Trading Post Mural","images":"La Jara Trading Post Mural.jpg"},"geometry":{"type":"Point","coordinates":[-105.9625843,37.2673151]}},{"type":"Feature","properties":{"name":"La Vega","images":""},"geometry":{"type":"Point","coordinates":[-105.4232256,37.19495]}},{"type":"Feature","properties":{"name":"Lafayette Head Compound","images":"Lafayette Head Compound.jpg"},"geometry":{"type":"Point","coordinates":[-106.021131,37.0895978]}},{"type":"Feature","properties":{"name":"Manassa Records","images":""},"geometry":{"type":"Point","coordinates":[-105.9383974,37.1738101]}},{"type":"Feature","properties":{"name":"Mesita Volcanic Area","images":"Mesita Volcanic Area.jpg"},"geometry":{"type":"Point","coordinates":[-105.6381091,37.1070479]}},{"type":"Feature","properties":{"name":"Mineral Hot Springs","images":"Mineral Hot Springs.jpg"},"geometry":{"type":"Point","coordinates":[-105.925847,38.168888]}},{"type":"Feature","properties":{"name":"Monte Vista Historical Society Museum","images":"Monte Vista Historical Society Museum.jpg"},"geometry":{"type":"Point","coordinates":[-106.1452239,37.5802683]}},{"type":"Feature","properties":{"name":"Monte Vista National Wildlife Refuge","images":"Monte Vista National Wildlife Refuge.jpg"},"geometry":{"type":"Point","coordinates":[-106.1478584,37.4854201]}},{"type":"Feature","properties":{"name":"Mount Lindsey","images":"Mount Lindsey.jpg"},"geometry":{"type":"Point","coordinates":[-105.440843,37.584727]}},{"type":"Feature","properties":{"name":"Murals of Conejos Driving Tour ","images":"Murals of Conejos Driving Tour .jpg"},"geometry":{"type":"Point","coordinates":[-106.0125112,37.0665782]}},{"type":"Feature","properties":{"name":"Natural Arch Trailhead","images":""},"geometry":{"type":"Point","coordinates":[-106.377438,37.81153]}},{"type":"Feature","properties":{"name":"North Zapata Ridge","images":""},"geometry":{"type":"Point","coordinates":[-105.4825,37.684444]}},{"type":"Feature","properties":{"name":"Our Lady of Guadalupe parish","images":"Our Lady of Guadalupe parish.jpg"},"geometry":{"type":"Point","coordinates":[-106.0201384,37.0882914]}},{"type":"Feature","properties":{"name":"Penitente Canyon","images":"Penitente Canyon.jpg"},"geometry":{"type":"Point","coordinates":[-106.2831855,37.8853526]}},{"type":"Feature","properties":{"name":"Pintada Mountain","images":""},"geometry":{"type":"Point","coordinates":[-106.402259,37.496672]}},{"type":"Feature","properties":{"name":"Plaza de San Luis de la Culebra","images":"Plaza de San Luis de la Culebra.jpg"},"geometry":{"type":"Point","coordinates":[-105.423947,37.1870506]}},{"type":"Feature","properties":{"name":"Poncha Pass","images":"Poncha Pass.jpg"},"geometry":{"type":"Point","coordinates":[-106.0869615,38.4222204]}},{"type":"Feature","properties":{"name":"Portal Activity","images":""},"geometry":{"type":"Point","coordinates":[-105.669057,38.029831]}},{"type":"Feature","properties":{"name":"Punche Valley","images":"Punche Valley.jpg"},"geometry":{"type":"Point","coordinates":[-105.798997,37.0102369]}},{"type":"Feature","properties":{"name":"Rio Grande County Museum","images":"Rio Grande County Museum 02.jpg"},"geometry":{"type":"Point","coordinates":[-106.3517466,37.677862]}},{"type":"Feature","properties":{"name":"Rio Grande Headwaters","images":"Rio Grande Headwaters.jpg"},"geometry":{"type":"Point","coordinates":[-106.3910874,37.6841884]}},{"type":"Feature","properties":{"name":"Ryan Geology Museum","images":"Ryan Geology Museum --asu 02.jpg"},"geometry":{"type":"Point","coordinates":[-105.8806504,37.4746242]}},{"type":"Feature","properties":{"name":"Sacred heart mission in Garcia","images":"Sacred heart mission in Garcia.jpg"},"geometry":{"type":"Point","coordinates":[-105.538821,37.0087478]}},{"type":"Feature","properties":{"name":"Saguache County Museum","images":"Saguache County Museum.jpg"},"geometry":{"type":"Point","coordinates":[-106.1422211,38.0865794]}},{"type":"Feature","properties":{"name":"San Juan volcanic field","images":"San Juan volcanic field.jpg"},"geometry":{"type":"Point","coordinates":[-106.7744601,37.8932822]}},{"type":"Feature","properties":{"name":"San Luis Hills HP","images":"San Luis Hills HP.jpg"},"geometry":{"type":"Point","coordinates":[-105.700031,37.2475]}},{"type":"Feature","properties":{"name":"San Luis Lakes","images":"San Luis Lake.jpg"},"geometry":{"type":"Point","coordinates":[-105.72043429025392, 37.700291157533535]}},{"type":"Feature","properties":{"name":"San Luis Peoples Ditch","images":"San Luis Peoples Ditch.jpg"},"geometry":{"type":"Point","coordinates":[-105.4322236,37.1982982]}},{"type":"Feature","properties":{"name":"San Luis Valley Museum","images":"San Luis Valley Museum.jpg"},"geometry":{"type":"Point","coordinates":[-105.86434,37.4690816]}},{"type":"Feature","properties":{"name":"Sanford Museum","images":"Sanford Museum.jpg"},"geometry":{"type":"Point","coordinates":[-105.9052376,37.2570629]}},{"type":"Feature","properties":{"name":"Sangre de Cristo Heritage Center","images":"Sangre de Cristo Heritage Center.jpg"},"geometry":{"type":"Point","coordinates":[-105.4250832,37.1995721]}},{"type":"Feature","properties":{"name":"Sangre de Cristo National Heritage Area","images":"Sangre de Cristo National Heritage Area.JPG"},"geometry":{"type":"Point","coordinates":[-105.866622,37.4695302]}},{"type":"Feature","properties":{"name":"Society Hall","images":"Society Hall.jpg"},"geometry":{"type":"Point","coordinates":[-105.8699725,37.469045]}},{"type":"Feature","properties":{"name":"SPMDTU Chama Concilio #31","images":"SPMDTU Chama Concilio 31.jpg"},"geometry":{"type":"Point","coordinates":[-105.375206,37.1625302]}},{"type":"Feature","properties":{"name":"Summitville Gold Mine","images":"Summitville Gold Mine.jpg"},"geometry":{"type":"Point","coordinates":[-106.594312,37.432341]}},{"type":"Feature","properties":{"name":"The Saguache Crescent Linotype Newspaper","images":"The Saguache Crescent Linotype Newspaper.jpg"},"geometry":{"type":"Point","coordinates":[-106.1367344,38.0869551]}},{"type":"Feature","properties":{"name":"Trickle Mountain","images":""},"geometry":{"type":"Point","coordinates":[-106.395308,38.156109]}},{"type":"Feature","properties":{"name":"UFO Watchtower","images":"UFO Watchtower.jpg"},"geometry":{"type":"Point","coordinates":[-105.8872121,37.7885473]}},{"type":"Feature","properties":{"name":"Underground Mining Museum","images":"Underground Mining Museum.jpg"},"geometry":{"type":"Point","coordinates":[-106.9280215,37.8578061]}},{"type":"Feature","properties":{"name":"Unexplained blow down area","images":""},"geometry":{"type":"Point","coordinates":[-106.708662,38.094099]}},{"type":"Feature","properties":{"name":"Ute Mountain","images":"Ute Mountain.jpeg"},"geometry":{"type":"Point","coordinates":[-105.6839004,36.9375203]}},{"type":"Feature","properties":{"name":"Villa Grove Turquoise Mine","images":"Villa Grove Turquoise Mine 01.png"},"geometry":{"type":"Point","coordinates":[-106.053085,38.298593]}},{"type":"Feature","properties":{"name":"Wheeler Geologic Area","images":"Wheeler Geologic Area.jpg"},"geometry":{"type":"Point","coordinates":[-106.783653,37.881721]}},{"type":"Feature","properties":{"name":"Zapata Falls","images":"Zapata Falls.jpg"},"geometry":{"type":"Point","coordinates":[-105.5530687,37.6188923]}},{"type":"Feature","properties":{"name":"Japanese Farmers of La Jara","images":"Japanese Farmers of La Jara.jpeg"},"geometry":{"type":"Point","coordinates":[-105.99506378173827,37.276238364942955]}}]}